City_ID,City,Cloudiness,Country,Date,Humidity,Lat,Lng,Max Temp,Wind Speed
0,punta arenas,64,CL,05/02/2018,93,-53.16,-70.91,43.86,4.94
1,atuona,64,PF,05/02/2018,100,-9.8,-139.03,78.06,12.21
2,bluff,0,AU,05/02/2018,93,-23.58,149.07,60.15,4.5
3,busselton,80,AU,05/02/2018,100,-33.64,115.35,62.4,17.02
4,tiksi,56,RU,05/02/2018,85,71.64,128.87,17.94,5.17
5,la mana,80,EC,05/02/2018,100,-0.93,-79.22,67.17,3.38
6,ushuaia,0,AR,05/02/2018,88,-54.81,-68.31,37.29,4.61
7,huarmey,0,PE,05/02/2018,58,-10.07,-78.15,75.99,4.16
8,luanda,0,AO,05/02/2018,85,-8.83,13.24,82.65,9.64
9,half moon bay,20,US,05/02/2018,35,37.46,-122.43,73.4,5.82
10,pevek,8,RU,05/02/2018,92,69.7,170.27,18.84,7.63
11,kapaa,92,US,05/02/2018,83,22.08,-159.32,73.65,6.17
12,nikolskoye,0,RU,05/02/2018,90,59.7,30.79,43.05,9.42
13,arraial do cabo,88,BR,05/02/2018,91,-22.97,-42.02,75.54,10.87
14,altoona,0,US,05/02/2018,32,40.52,-78.39,79.41,10.42
15,hithadhoo,80,MV,05/02/2018,100,-0.6,73.08,82.02,12.77
16,koson,0,UZ,05/02/2018,37,39.04,65.59,65.91,20.27
17,sinnamary,76,GF,05/02/2018,96,5.38,-52.96,79.77,11.43
18,tura,64,IN,05/02/2018,98,25.52,90.21,65.91,3.15
19,thompson,64,CA,05/02/2018,51,55.74,-97.86,50.61,6.96
20,upernavik,0,GL,05/02/2018,100,72.79,-56.15,12.54,12.55
21,cape town,48,ZA,05/02/2018,98,-33.93,18.42,61.05,14.45
22,basco,56,US,05/02/2018,85,40.33,-91.2,75.72,10.76
23,severo-kurilsk,36,RU,05/02/2018,100,50.68,156.12,31.98,7.4
24,barrow,92,AR,05/02/2018,82,-38.31,-60.23,62.31,12.21
25,kruisfontein,100,ZA,05/02/2018,94,-34.0,24.73,65.37,25.52
26,broome,0,GB,05/02/2018,92,52.47,1.45,43.86,9.42
27,pathalgaon,20,IN,05/02/2018,87,22.56,83.46,64.92,1.92
28,te anau,80,NZ,05/02/2018,96,-45.41,167.72,40.53,2.71
29,vaini,20,IN,05/02/2018,93,15.34,74.49,69.51,2.71
30,fuerte olimpo,0,BR,05/02/2018,44,-21.04,-57.87,88.59,7.96
31,hermanus,88,ZA,05/02/2018,97,-34.42,19.24,57.81,3.6
32,iqaluit,36,CA,05/02/2018,87,63.75,-68.52,13.17,15.79
33,east london,48,ZA,05/02/2018,100,-33.02,27.91,71.85,21.5
34,neiafu,92,TO,05/02/2018,100,-18.65,-173.98,73.38,15.12
35,puerto ayora,8,EC,05/02/2018,90,-0.74,-90.35,80.04,9.98
36,hudiksvall,44,SE,05/02/2018,74,61.73,17.1,45.57,8.75
37,matara,24,PE,05/02/2018,45,-13.74,-72.9,59.61,2.59
38,mahebourg,56,MU,05/02/2018,77,-20.41,57.7,75.54,12.77
39,sao felix do xingu,48,BR,05/02/2018,89,-6.64,-51.99,76.62,1.7
40,avarua,32,CK,05/02/2018,100,-21.21,-159.78,79.05,12.77
41,hobart,0,AU,05/02/2018,87,-42.88,147.33,51.51,5.17
42,qingdao,64,CN,05/02/2018,91,36.09,120.35,52.41,11.88
43,fort saint james,8,CA,05/02/2018,45,54.43,-124.25,55.29,9.64
44,labuhan,8,ID,05/02/2018,97,-2.54,115.51,69.87,1.7
45,akureyri,12,IS,05/02/2018,88,65.68,-18.09,20.82,1.92
46,mataura,76,NZ,05/02/2018,92,-46.19,168.86,45.48,4.16
47,kodiak,68,US,05/02/2018,100,39.95,-94.76,77.61,6.29
48,caravelas,0,BR,05/02/2018,99,-17.73,-39.27,79.41,11.54
49,jamestown,88,AU,05/02/2018,92,-33.21,138.6,56.01,4.72
50,kang,0,BW,05/02/2018,47,-23.67,22.79,60.42,7.96
51,namatanai,0,PG,05/02/2018,100,-3.66,152.44,82.11,7.52
52,kahului,75,US,05/02/2018,78,20.89,-156.47,80.6,19.46
53,sassandra,24,CI,05/02/2018,95,4.95,-6.09,82.92,12.33
54,castro,80,CL,05/02/2018,96,-42.48,-73.76,51.51,12.21
55,nivala,92,FI,05/02/2018,100,63.93,24.96,37.83,5.17
56,dikson,68,RU,05/02/2018,92,73.51,80.55,17.76,24.07
57,chokurdakh,88,RU,05/02/2018,100,70.62,147.9,34.41,14.79
58,dubai,64,AE,05/02/2018,86,25.27,55.3,82.02,12.21
59,rikitea,68,PF,05/02/2018,100,-23.12,-134.97,74.37,11.1
60,chuy,92,UY,05/02/2018,81,-33.69,-53.46,69.15,15.46
61,longyearbyen,56,NO,05/02/2018,100,78.22,15.63,23.61,1.92
62,viedma,76,AR,05/02/2018,76,-40.81,-62.99,57.81,12.44
63,bredasdorp,88,ZA,05/02/2018,91,-34.53,20.04,63.57,12.55
64,rawson,0,AR,05/02/2018,33,-43.3,-65.11,64.92,8.97
65,bowen,88,AU,05/02/2018,100,-20.01,148.25,76.44,14.79
66,sri aman,48,MY,05/02/2018,100,1.24,111.46,73.38,2.15
67,bonfim,0,BR,05/02/2018,45,-20.33,-44.24,72.39,7.52
68,goderich,88,CA,05/02/2018,65,43.74,-81.71,66.9,16.8
69,katsuura,56,JP,05/02/2018,92,33.93,134.5,61.86,11.99
70,geraldton,48,CA,05/02/2018,76,49.72,-86.95,40.35,3.38
71,gizo,0,IL,05/02/2018,59,31.8,34.94,70.68,5.5
72,ribeira grande,8,PT,05/02/2018,97,38.52,-28.7,63.12,9.86
73,cherskiy,24,RU,05/02/2018,76,68.75,161.3,25.59,6.06
74,yamada,92,JP,05/02/2018,95,36.58,137.08,63.39,8.3
75,pontianak,80,ID,05/02/2018,100,-0.02,109.34,76.62,4.83
76,aligudarz,0,IR,05/02/2018,91,33.4,49.69,38.37,2.48
77,atocha,76,EC,05/02/2018,79,-1.22,-78.6,53.94,2.37
78,lebu,76,ET,05/02/2018,90,8.96,38.73,49.71,2.82
79,grand-santi,92,GF,05/02/2018,96,4.27,-54.38,75.27,2.59
80,saint-augustin,92,FR,05/02/2018,96,44.83,-0.61,51.24,6.85
81,lompoc,0,US,05/02/2018,81,34.64,-120.46,57.81,8.97
82,barcelos,36,PT,05/02/2018,95,41.53,-8.62,50.79,2.15
83,santa vitoria do palmar,92,BR,05/02/2018,81,-33.52,-53.37,69.15,15.46
84,northam,12,GB,05/02/2018,95,51.04,-4.21,45.66,10.2
85,luchegorsk,88,RU,05/02/2018,52,46.44,134.3,45.84,10.2
86,hilo,90,US,05/02/2018,88,19.71,-155.08,77.0,5.82
87,safford,0,US,05/02/2018,19,32.83,-109.71,65.19,10.65
88,khatanga,56,RU,05/02/2018,82,71.98,102.47,7.86,8.63
89,biltine,0,TD,05/02/2018,40,14.53,20.93,76.17,4.94
90,hofn,0,IS,05/02/2018,99,64.25,-15.21,39.27,13.78
91,salinopolis,80,BR,05/02/2018,100,-0.61,-47.36,80.31,10.65
92,panguna,0,PG,05/02/2018,92,-6.32,155.48,74.82,3.49
93,noumea,76,NC,05/02/2018,86,-22.28,166.46,71.94,9.75
94,egvekinot,36,RU,05/02/2018,95,66.32,-179.17,24.15,3.38
95,yellowknife,56,CA,05/02/2018,64,62.45,-114.38,47.91,8.63
96,lumberton,0,US,05/02/2018,62,30.27,-94.2,85.08,16.24
97,tuktoyaktuk,0,CA,05/02/2018,100,69.44,-133.03,12.81,7.18
98,klaksvik,64,FO,05/02/2018,100,62.23,-6.59,42.69,15.9
99,new norfolk,8,AU,05/02/2018,90,-42.78,147.06,46.47,5.39
100,areia branca,92,BR,05/02/2018,74,-10.76,-37.31,79.95,11.21
101,walvis bay,0,NA,05/02/2018,99,-22.95,14.51,65.46,9.75
102,ancud,92,CL,05/02/2018,93,-41.87,-73.83,53.04,11.65
103,bambous virieux,56,MU,05/02/2018,77,-20.34,57.76,75.54,12.77
104,dolores,88,AR,05/02/2018,85,-36.31,-57.68,64.47,13.0
105,pierre,24,US,05/02/2018,70,44.37,-100.35,67.26,5.39
106,grand gaube,20,MU,05/02/2018,100,-20.01,57.66,78.15,20.04
107,callaway,12,US,05/02/2018,78,46.98,-95.91,59.79,10.98
108,itaituba,32,BR,05/02/2018,77,-4.26,-55.99,84.45,1.81
109,svetlogorsk,56,RU,05/02/2018,96,53.14,59.15,42.24,7.18
110,cockburn town,80,TC,05/02/2018,100,21.46,-71.14,77.34,13.44
111,vanavara,0,RU,05/02/2018,67,60.35,102.28,29.1,7.74
112,port lincoln,92,AU,05/02/2018,100,-34.72,135.86,59.52,17.58
113,port alfred,0,ZA,05/02/2018,87,-33.59,26.89,68.43,16.02
114,porto velho,0,BR,05/02/2018,82,-8.75,-63.87,84.18,1.81
115,mlonggo,20,ID,05/02/2018,100,-6.53,110.7,76.89,4.05
116,norman wells,76,CA,05/02/2018,94,65.28,-126.83,35.94,4.05
117,nokha,0,IN,05/02/2018,37,27.56,73.47,79.77,9.42
118,kabalo,8,CD,05/02/2018,71,-6.05,26.92,75.81,8.19
119,mountain home,0,US,05/02/2018,37,43.13,-115.69,64.11,10.2
120,agadir,32,MA,05/02/2018,70,30.42,-9.58,58.17,6.96
121,airai,64,TL,05/02/2018,95,-8.93,125.41,68.25,2.04
122,sapulpa,0,US,05/02/2018,57,36.0,-96.11,85.71,22.28
123,carahue,100,CL,05/02/2018,100,-38.71,-73.16,54.75,12.77
124,whithorn,68,JM,05/02/2018,100,18.26,-78.04,79.77,2.93
125,maxixe,0,MZ,05/02/2018,100,-23.86,35.35,67.89,3.94
126,bambanglipuro,0,ID,05/02/2018,96,-7.95,110.28,66.36,1.92
127,sun city west,75,US,05/02/2018,24,33.66,-112.34,71.6,11.41
128,saskylakh,36,RU,05/02/2018,80,71.97,114.09,6.33,9.31
129,lagoa,8,PT,05/02/2018,78,37.14,-8.45,53.85,5.17
130,beaupre,88,CA,05/02/2018,93,47.04,-70.9,62.04,9.08
131,tecoanapa,8,MX,05/02/2018,46,16.99,-99.26,92.1,7.74
132,victoria,80,BN,05/02/2018,100,5.28,115.24,82.11,4.16
133,sao joao da barra,12,BR,05/02/2018,100,-21.64,-41.05,76.8,14.12
134,miraflores,80,CO,05/02/2018,71,5.2,-73.14,61.05,2.48
135,taoudenni,0,ML,05/02/2018,15,22.68,-3.98,72.21,8.97
136,dzaoudzi,0,YT,05/02/2018,99,-12.79,45.27,82.2,2.04
137,rio cuarto,32,AR,05/02/2018,85,-33.13,-64.35,68.34,3.94
138,baykit,0,RU,05/02/2018,73,61.68,96.39,14.79,2.71
139,fortuna,32,ES,05/02/2018,32,38.18,-1.13,58.53,10.98
140,leningradskiy,88,RU,05/02/2018,100,69.38,178.42,13.44,4.83
141,filimonovo,0,RU,05/02/2018,54,54.21,39.6,65.28,7.63
142,lukovetskiy,88,RU,05/02/2018,66,64.29,41.92,36.21,10.76
143,bartlesville,0,US,05/02/2018,53,36.75,-95.98,86.34,21.27
144,lake city,88,US,05/02/2018,65,38.03,-107.32,31.44,4.27
145,albany,8,US,05/02/2018,33,42.65,-73.75,79.77,7.52
146,calama,8,CL,05/02/2018,49,-22.46,-68.93,65.82,3.71
147,troitsko-pechorsk,32,RU,05/02/2018,82,62.71,56.19,23.88,2.37
148,nabire,64,ID,05/02/2018,95,-3.36,135.5,69.06,1.92
149,altus,8,US,05/02/2018,19,34.64,-99.33,95.52,23.06
150,tamandare,12,BR,05/02/2018,75,-8.28,-70.75,84.27,2.48
151,nemuro,92,JP,05/02/2018,96,43.32,145.57,39.99,20.49
152,port elizabeth,0,US,05/02/2018,28,39.31,-74.98,86.07,17.81
153,madison,56,US,05/02/2018,84,43.07,-89.38,71.85,8.63
154,georgetown,92,GY,05/02/2018,88,6.8,-58.16,79.05,7.18
155,nanortalik,8,GL,05/02/2018,100,60.14,-45.24,25.14,30.33
156,gravdal,88,NO,05/02/2018,90,59.79,5.78,41.07,10.65
157,zheleznogorsk,20,RU,05/02/2018,78,56.25,93.53,30.27,5.61
158,qaanaaq,0,GL,05/02/2018,83,77.48,-69.36,4.71,1.92
159,vila franca do campo,0,PT,05/02/2018,100,37.72,-25.43,60.42,13.22
160,vila velha,80,BR,05/02/2018,100,-3.71,-38.6,81.3,10.54
161,margate,0,AU,05/02/2018,88,-43.03,147.26,53.58,6.62
162,lata,92,IN,05/02/2018,100,30.78,78.62,48.09,1.7
163,bonthe,48,SL,05/02/2018,89,7.53,-12.5,81.03,4.05
164,urubicha,68,BO,05/02/2018,61,-15.63,-63.08,86.25,2.71
165,kavaratti,80,IN,05/02/2018,100,10.57,72.64,84.45,6.4
166,trairi,44,BR,05/02/2018,100,-3.28,-39.27,80.67,13.56
167,chatra,8,IN,05/02/2018,88,24.21,84.87,71.4,8.75
168,izhma,68,RU,05/02/2018,79,65.01,53.91,26.04,2.48
169,arinos,0,BR,05/02/2018,48,-15.92,-46.11,79.05,4.38
170,saint-louis,76,CH,05/02/2018,75,47.59,7.56,51.15,3.04
171,tabou,24,CI,05/02/2018,99,4.42,-7.36,83.28,10.2
172,salalah,0,OM,05/02/2018,100,17.01,54.1,80.85,6.06
173,sim,64,BR,05/02/2018,75,-12.25,-38.93,77.79,10.87
174,saint george,8,GR,05/02/2018,68,39.45,22.34,62.04,4.16
175,port pirie,92,AU,05/02/2018,100,-33.18,138.01,62.04,8.63
176,ostrovnoy,0,RU,05/02/2018,84,68.05,39.51,20.82,8.75
177,naze,24,NG,05/02/2018,94,5.43,7.07,75.9,4.72
178,vostok,88,RU,05/02/2018,63,46.45,135.83,40.17,10.42
179,bilibino,0,RU,05/02/2018,78,68.06,166.44,27.84,3.15
180,sao filipe,0,CV,05/02/2018,95,14.9,-24.5,71.31,18.59
181,yulara,88,AU,05/02/2018,31,-25.24,130.99,63.57,6.85
182,palembang,64,ID,05/02/2018,93,-2.99,104.76,75.0,2.71
183,byron bay,64,AU,05/02/2018,100,-28.65,153.62,67.17,2.37
184,jinchang,0,CN,05/02/2018,63,38.52,102.19,36.84,2.04
185,zyryanskoye,32,RU,05/02/2018,78,56.83,86.62,24.87,2.82
186,tudora,0,UA,05/02/2018,73,46.43,30.04,56.1,2.59
187,keetmanshoop,0,NA,05/02/2018,28,-26.57,18.15,65.19,7.18
188,provideniya,64,RU,05/02/2018,100,64.42,-173.23,27.75,2.93
189,mar del plata,48,AR,05/02/2018,56,-46.43,-67.52,56.46,14.12
190,butaritari,76,KI,05/02/2018,100,3.07,172.79,83.01,9.75
191,lorengau,88,PG,05/02/2018,100,-2.02,147.27,82.74,6.17
192,constitucion,0,MX,05/02/2018,18,23.99,-104.67,84.9,14.67
193,jalu,92,LY,05/02/2018,19,29.03,21.55,86.79,7.96
194,kuminskiy,56,RU,05/02/2018,78,58.67,66.57,28.38,2.37
195,nieves,76,MX,05/02/2018,18,24.0,-103.02,83.64,8.52
196,awbari,0,LY,05/02/2018,18,26.59,12.77,71.85,11.21
197,vardo,0,US,05/02/2018,28,39.62,-77.74,84.36,9.08
198,maniitsoq,8,GL,05/02/2018,90,65.42,-52.9,16.41,4.5
199,thinadhoo,92,MV,05/02/2018,96,0.53,72.93,85.98,15.23
200,caruray,76,PH,05/02/2018,100,10.31,119.01,82.29,4.61
201,carnarvon,12,ZA,05/02/2018,51,-30.97,22.13,48.45,10.76
202,takapau,0,NZ,05/02/2018,80,-40.02,176.35,46.02,3.71
203,moerai,0,PF,05/02/2018,100,-22.43,-151.33,76.98,7.96
204,shipunovo,92,RU,05/02/2018,96,52.22,82.26,38.82,17.58
205,faanui,44,PF,05/02/2018,100,-16.48,-151.75,82.2,14.23
206,hue,8,VN,05/02/2018,93,16.47,107.58,68.88,2.59
207,newton,92,US,05/02/2018,100,41.7,-93.05,67.17,6.29
208,san quintin,8,PH,05/02/2018,87,17.54,120.52,73.74,3.49
209,gawler,92,AU,05/02/2018,100,-34.6,138.75,60.15,14.12
210,broken hill,24,AU,05/02/2018,39,-31.97,141.45,59.25,14.45
211,saint john,8,CA,05/02/2018,79,45.28,-66.06,48.81,16.8
212,povenets,92,RU,05/02/2018,92,62.85,34.83,38.55,8.19
213,plettenberg bay,88,ZA,05/02/2018,93,-34.05,23.37,62.67,23.85
214,nizhnyaya tavda,0,RU,05/02/2018,75,57.67,66.17,29.37,3.38
215,magna,76,FR,05/02/2018,48,43.5,0.96,57.36,9.75
216,grindavik,56,IS,05/02/2018,100,63.84,-22.43,39.81,14.23
217,portland,0,US,05/02/2018,67,45.52,-122.67,65.1,3.15
218,mauldin,0,US,05/02/2018,32,34.78,-82.31,82.65,9.31
219,bartica,100,GY,05/02/2018,97,6.41,-58.62,74.91,3.04
220,takoradi,0,GH,05/02/2018,97,4.89,-1.75,82.02,9.75
221,simao,92,CN,05/02/2018,100,22.76,100.79,60.69,2.37
222,ballina,92,IE,05/02/2018,83,54.11,-9.15,46.74,12.21
223,kasongo-lunda,24,CD,05/02/2018,59,-6.48,16.82,78.96,2.93
224,mpika,12,ZM,05/02/2018,94,-11.84,31.4,61.95,6.96
225,port-gentil,92,GA,05/02/2018,100,-0.72,8.78,79.95,6.62
226,olavarria,92,AR,05/02/2018,98,-36.89,-60.32,60.69,7.96
227,ahipara,0,NZ,05/02/2018,91,-35.17,173.16,58.89,7.96
228,athabasca,56,CA,05/02/2018,49,54.72,-113.29,60.87,16.02
229,yelizavetinskoye,0,RU,05/02/2018,69,45.01,43.35,58.62,6.96
230,ahuimanu,90,US,05/02/2018,94,21.44,-157.84,69.8,3.36
231,san patricio,0,PY,05/02/2018,46,-26.98,-56.83,85.17,5.28
232,codrington,44,AU,05/02/2018,92,-28.95,153.24,52.14,2.37
233,virginia beach,0,US,05/02/2018,30,36.85,-75.98,84.72,12.44
234,san cristobal,48,EC,05/02/2018,83,-0.39,-78.55,56.01,0.47
235,tuatapere,48,NZ,05/02/2018,100,-46.13,167.69,48.63,9.31
236,mont-de-marsan,92,FR,05/02/2018,88,43.89,-0.5,51.42,4.94
237,ponta do sol,0,BR,05/02/2018,40,-20.63,-46.0,72.03,6.73
238,presidente medici,12,BR,05/02/2018,69,-11.18,-61.9,86.25,2.26
239,lazaro cardenas,92,MX,05/02/2018,19,28.39,-105.62,84.27,24.85
240,isangel,76,VU,05/02/2018,100,-19.55,169.27,76.17,11.77
241,onega,92,RU,05/02/2018,91,63.91,38.09,34.95,15.23
242,quelimane,64,MZ,05/02/2018,94,-17.88,36.89,73.92,3.04
243,puerto escondido,12,MX,05/02/2018,100,15.86,-97.07,85.44,7.4
244,sabha,0,LY,05/02/2018,18,27.03,14.43,75.27,12.77
245,altamira,92,BR,05/02/2018,95,-3.2,-52.21,76.89,2.93
246,dunedin,88,NZ,05/02/2018,87,-45.87,170.5,38.28,2.71
247,gazanjyk,12,TM,05/02/2018,25,39.24,55.52,65.46,14.12
248,am timan,0,TD,05/02/2018,39,11.04,20.28,80.22,6.4
249,homer,0,US,05/02/2018,90,59.64,-151.54,38.46,7.96
250,harper,24,US,05/02/2018,54,30.3,-99.24,87.06,19.15
251,waingapu,12,ID,05/02/2018,91,-9.65,120.26,70.23,3.71
252,amahai,48,ID,05/02/2018,100,-3.31,129.0,80.67,5.73
253,saint-pierre,44,FR,05/02/2018,68,48.95,4.24,50.43,7.4
254,papenburg,44,DE,05/02/2018,57,53.08,7.39,53.04,8.97
255,bethel,20,US,05/02/2018,78,60.79,-161.76,37.29,5.73
256,sisimiut,68,GL,05/02/2018,85,66.94,-53.67,13.17,2.71
257,hasaki,92,JP,05/02/2018,89,35.73,140.83,65.91,35.37
258,komsomolskiy,12,RU,05/02/2018,63,67.55,63.78,-3.31,2.93
259,nichinan,32,JP,05/02/2018,100,31.65,131.31,58.89,15.01
260,divnogorsk,76,RU,05/02/2018,79,55.96,92.38,30.36,4.38
261,la baule-escoublac,0,FR,05/02/2018,70,47.28,-2.4,49.17,14.79
262,cordoba,80,CO,05/02/2018,59,5.59,-73.79,64.11,0.69
263,saint-philippe,68,CA,05/02/2018,60,45.36,-73.48,73.29,17.92
264,avera,0,US,05/02/2018,33,33.19,-82.53,83.82,4.27
265,roswell,0,US,05/02/2018,24,33.39,-104.52,77.79,22.28
266,leh,88,IN,05/02/2018,88,34.16,77.58,11.37,0.58
267,honiara,64,SB,05/02/2018,100,-9.43,159.96,75.81,1.7
268,itoman,68,JP,05/02/2018,100,26.12,127.67,72.84,21.05
269,paragominas,92,BR,05/02/2018,100,-3.0,-47.35,75.54,3.71
270,clyde river,36,CA,05/02/2018,90,70.47,-68.59,12.45,2.59
271,mastic beach,0,US,05/02/2018,64,40.77,-72.85,60.15,18.81
272,dingli,68,MT,05/02/2018,100,35.86,14.38,61.32,31.56
273,silver city,92,US,05/02/2018,25,32.77,-108.28,54.75,12.66
274,mackay,56,CA,05/02/2018,31,53.65,-115.58,62.85,11.65
275,roseburg,0,US,05/02/2018,49,43.22,-123.34,66.54,2.93
276,littleton,90,US,05/02/2018,93,39.61,-105.02,50.0,4.83
277,imeni poliny osipenko,0,RU,05/02/2018,64,52.42,136.49,31.89,2.15
278,kutum,0,SD,05/02/2018,28,14.2,24.66,69.06,6.29
279,ranong,88,TH,05/02/2018,100,9.96,98.62,83.01,2.15
280,upata,56,VE,05/02/2018,72,8.02,-62.41,80.49,7.63
281,manono,68,CD,05/02/2018,95,-7.3,27.4,70.95,3.71
282,severomorsk,0,RU,05/02/2018,87,69.07,33.42,29.01,2.48
283,aklavik,56,CA,05/02/2018,100,68.22,-135.01,22.8,5.17
284,mount isa,0,AU,05/02/2018,56,-20.73,139.49,58.44,6.73
285,xiaoweizhai,92,CN,05/02/2018,100,26.23,107.51,59.79,2.59
286,amarante do maranhao,44,BR,05/02/2018,94,-5.57,-46.74,75.54,2.37
287,luau,36,CD,05/02/2018,57,-10.7,22.23,69.24,3.15
288,cap-chat,92,CA,05/02/2018,84,49.1,-66.68,44.31,7.4
289,ochamchira,0,GE,05/02/2018,74,42.71,41.47,65.19,5.61
290,wewak,88,PG,05/02/2018,100,-3.55,143.63,74.91,2.37
291,benghazi,20,LY,05/02/2018,99,32.12,20.07,65.82,17.25
292,cidreira,20,BR,05/02/2018,78,-30.17,-50.22,71.49,17.81
293,cochrane,76,CL,05/02/2018,100,-47.25,-72.57,36.21,0.92
294,sechura,0,PE,05/02/2018,67,-5.56,-80.82,78.87,14.0
295,nioro,0,GM,05/02/2018,35,13.79,-15.05,87.51,5.73
296,barra do garcas,0,BR,05/02/2018,47,-15.89,-52.26,82.65,3.15
297,zheleznodorozhnyy,0,RU,05/02/2018,89,55.75,38.0,57.99,6.62
298,izumo,88,JP,05/02/2018,100,35.37,132.75,55.83,25.75
299,russellville,80,US,05/02/2018,83,35.28,-93.13,74.82,7.29
300,corrente,0,BR,05/02/2018,56,-17.45,-44.68,75.27,4.94
301,daraitan,12,PH,05/02/2018,100,14.6,121.43,77.25,5.5
302,namibe,44,AO,05/02/2018,96,-15.19,12.15,79.59,12.77
303,tasiilaq,88,GL,05/02/2018,95,65.61,-37.64,28.02,26.87
304,kieta,88,PG,05/02/2018,100,-6.22,155.63,79.23,4.16
305,ilulissat,68,GL,05/02/2018,97,69.22,-51.1,18.3,3.6
306,nurobod,20,UZ,05/02/2018,89,40.91,69.8,46.74,2.82
307,lucan,64,IE,05/02/2018,74,53.36,-6.45,46.47,12.77
308,okhotsk,0,RU,05/02/2018,95,59.36,143.24,26.94,3.83
309,laramie,90,US,05/02/2018,100,41.31,-105.59,42.8,9.17
310,andros town,92,BS,05/02/2018,100,24.73,-77.79,71.58,15.46
311,balikpapan,8,ID,05/02/2018,100,-1.24,116.86,80.22,6.4
312,bocas del toro,12,PA,05/02/2018,100,9.33,-82.25,81.12,8.41
313,ustye,0,RU,05/02/2018,84,58.76,27.79,45.03,9.19
314,souillac,92,FR,05/02/2018,89,45.6,-0.6,52.14,8.75
315,la peca,48,PE,05/02/2018,89,-5.61,-78.44,71.85,2.59
316,trinidad,92,UY,05/02/2018,98,-33.52,-56.9,63.57,13.89
317,carhuamayo,0,PE,05/02/2018,44,-10.92,-76.06,57.72,7.18
318,kaitangata,64,NZ,05/02/2018,76,-46.28,169.85,45.21,5.61
319,saint anthony,0,US,05/02/2018,50,43.97,-111.68,57.18,7.4
320,nelson bay,0,AU,05/02/2018,100,-32.72,152.14,69.69,6.4
321,dingle,48,PH,05/02/2018,96,11.0,122.67,75.72,3.15
322,buraydah,20,SA,05/02/2018,70,26.33,43.97,65.46,3.83
323,cody,36,US,05/02/2018,91,44.53,-109.06,44.4,3.38
324,paamiut,76,GL,05/02/2018,100,61.99,-49.67,25.41,17.13
325,yangambi,32,CD,05/02/2018,73,0.77,24.47,80.04,3.6
326,chenzhou,100,CN,05/02/2018,100,25.81,113.03,68.88,3.94
327,torbay,20,CA,05/02/2018,61,47.66,-52.73,47.82,17.25
328,krasnyy chikoy,44,RU,05/02/2018,72,50.36,108.75,38.01,1.59
329,sorong,36,ID,05/02/2018,100,-0.86,131.25,81.93,10.2
330,ler,12,NO,05/02/2018,61,63.2,10.3,43.05,7.63
331,yining,88,CN,05/02/2018,88,29.04,114.56,60.24,2.26
332,zambezi,0,ZM,05/02/2018,51,-13.55,23.12,64.47,7.18
333,skegness,0,GB,05/02/2018,96,53.14,0.34,47.46,16.8
334,bulgan,92,MN,05/02/2018,43,48.81,103.53,53.31,5.17
335,touros,100,BR,05/02/2018,78,-5.2,-35.46,81.39,10.65
336,waipawa,0,NZ,05/02/2018,80,-39.94,176.59,46.02,3.71
337,sokoto,8,NG,05/02/2018,41,13.06,5.24,88.32,6.4
338,muroto,68,JP,05/02/2018,94,33.37,134.14,65.91,10.98
339,rachitova,0,RO,05/02/2018,60,45.6,22.75,57.81,7.18
340,pochutla,8,MX,05/02/2018,96,15.74,-96.47,84.45,5.39
341,nadym,64,RU,05/02/2018,82,65.53,72.51,10.11,9.42
342,neka,24,IR,05/02/2018,94,36.65,53.3,53.22,2.59
343,yasnyy,88,RU,05/02/2018,68,64.04,44.09,33.51,6.73
344,mount gambier,88,AU,05/02/2018,79,-37.83,140.78,58.53,8.63
345,luderitz,8,NA,05/02/2018,84,-26.65,15.16,58.53,12.44
346,cabo san lucas,0,MX,05/02/2018,91,22.89,-109.91,73.92,3.83
347,karla,0,EE,05/02/2018,89,59.37,24.93,42.42,9.42
348,ostersund,0,SE,05/02/2018,75,63.18,14.64,39.81,8.19
349,iquitos,64,PE,05/02/2018,82,-3.75,-73.25,83.01,3.38
350,evensk,76,RU,05/02/2018,100,61.92,159.24,26.04,4.83
351,saryagash,0,KZ,05/02/2018,64,41.45,69.17,54.57,8.97
352,sitka,48,US,05/02/2018,48,37.17,-99.65,80.58,16.24
353,najran,36,SA,05/02/2018,30,17.54,44.22,72.84,4.16
354,ulladulla,0,AU,05/02/2018,98,-35.36,150.48,63.39,7.74
355,college,90,US,05/02/2018,70,64.86,-147.8,32.0,8.05
356,pisco,0,PE,05/02/2018,70,-13.71,-76.2,73.56,3.94
357,shingu,92,JP,05/02/2018,93,33.72,135.99,67.62,14.67
358,salaga,12,GH,05/02/2018,96,8.55,-0.52,76.8,3.15
359,rundu,0,NA,05/02/2018,37,-17.91,19.77,62.04,8.3
360,yar-sale,12,RU,05/02/2018,72,66.83,70.83,4.26,11.99
361,nantucket,0,US,05/02/2018,78,41.28,-70.1,53.76,22.06
362,aljezur,0,PT,05/02/2018,100,37.31,-8.8,56.64,4.61
363,kalispell,80,US,05/02/2018,56,48.2,-114.32,53.58,3.04
364,kihei,75,US,05/02/2018,78,20.76,-156.45,80.6,19.46
365,acapulco,8,MX,05/02/2018,50,16.86,-99.88,90.57,8.97
366,la carlota,36,PH,05/02/2018,100,10.43,122.92,74.55,2.15
367,san policarpo,92,PH,05/02/2018,100,12.18,125.51,79.41,4.5
368,tautira,76,PF,05/02/2018,100,-17.73,-149.15,80.22,8.63
369,nara,92,JP,05/02/2018,98,34.68,135.8,63.75,10.42
370,bathsheba,92,BB,05/02/2018,99,13.22,-59.52,79.86,18.25
371,hondo,20,US,05/02/2018,65,29.35,-99.14,84.81,15.23
372,genhe,0,CN,05/02/2018,69,50.78,121.52,22.26,2.59
373,santa isabel do rio negro,80,BR,05/02/2018,85,-0.41,-65.02,81.03,3.15
374,prado,0,BR,05/02/2018,95,-17.34,-39.22,79.68,10.54
375,salinas,0,US,05/02/2018,75,36.67,-121.66,61.23,6.96
376,sosnovo-ozerskoye,44,RU,05/02/2018,74,52.53,111.54,30.81,3.15
377,bourail,76,NC,05/02/2018,73,-21.57,165.5,70.59,6.73
378,darhan,88,MN,05/02/2018,69,49.49,105.92,46.47,4.38
379,lakes entrance,0,AU,05/02/2018,86,-37.88,147.99,58.08,8.75
380,ambilobe,0,MG,05/02/2018,60,-13.19,49.05,75.9,14.0
381,abalak,0,NE,05/02/2018,20,15.46,6.28,82.56,8.97
382,namie,100,JP,05/02/2018,89,37.52,140.86,62.04,16.8
383,kudahuvadhoo,80,MV,05/02/2018,100,2.67,72.89,85.17,15.57
384,quatre cocos,56,MU,05/02/2018,77,-20.21,57.76,75.54,12.77
385,adrar,0,DZ,05/02/2018,23,27.87,-0.29,67.17,9.98
386,danielskuil,12,ZA,05/02/2018,54,-28.19,23.54,54.57,6.51
387,kirakira,36,SB,05/02/2018,100,-10.46,161.92,83.37,6.96
388,suntar,48,RU,05/02/2018,96,62.16,117.65,44.94,8.3
389,hobyo,64,SO,05/02/2018,99,5.35,48.53,77.07,9.31
390,wuwei,0,CN,05/02/2018,73,37.93,102.64,33.33,2.37
391,gamba,32,CN,05/02/2018,73,28.28,88.52,8.22,1.7
392,klyuchi,0,RU,05/02/2018,84,52.25,79.17,37.92,12.77
393,ilebo,12,CD,05/02/2018,76,-4.33,20.59,76.98,4.27
394,abnub,8,EG,05/02/2018,35,27.27,31.15,71.4,1.59
395,brae,12,GB,05/02/2018,98,60.4,-1.35,44.04,10.31
396,kavieng,24,PG,05/02/2018,100,-2.57,150.8,83.55,4.72
397,merrill,0,US,05/02/2018,42,42.03,-121.6,59.7,3.71
398,san ramon,20,NI,05/02/2018,73,12.92,-85.84,74.46,3.04
399,rio gallegos,32,AR,05/02/2018,84,-51.62,-69.22,45.57,3.27
400,mareeba,64,AU,05/02/2018,88,-16.99,145.42,64.65,7.07
401,rio grande,92,BR,05/02/2018,84,-32.03,-52.1,73.02,18.7
402,alta floresta,8,BR,05/02/2018,65,-9.87,-56.08,86.7,1.92
403,srednekolymsk,48,RU,05/02/2018,67,67.46,153.71,30.54,5.39
404,tazmalt,0,DZ,05/02/2018,90,36.39,4.4,43.32,3.94
405,kungurtug,20,RU,05/02/2018,79,50.6,97.53,22.35,2.37
406,matagami,8,NG,05/02/2018,96,9.67,8.4,68.97,2.59
407,kulevcha,0,UA,05/02/2018,73,46.03,29.93,56.1,2.59
408,palmer,92,AU,05/02/2018,85,-34.85,139.16,56.64,11.43
409,ayia galini,48,GR,05/02/2018,95,35.1,24.68,67.35,4.16
410,sefophe,0,BW,05/02/2018,72,-22.18,27.97,57.99,0.47
411,kloulklubed,92,PW,05/02/2018,100,7.04,134.26,84.18,10.65
412,carauari,44,BR,05/02/2018,79,-4.88,-66.9,83.64,3.04
413,marawi,64,PH,05/02/2018,100,8.0,124.29,70.59,0.58
414,yarmouth,0,GB,05/02/2018,98,50.71,-1.5,43.86,8.97
415,pergamino,92,AR,05/02/2018,99,-33.9,-60.57,64.74,6.73
416,ferme-neuve,92,CA,05/02/2018,99,46.7,-75.45,58.8,3.6
417,phalaborwa,0,ZA,05/02/2018,75,-23.95,31.14,66.72,6.06
418,marzuq,8,YE,05/02/2018,90,14.4,46.47,62.76,3.04
419,husavik,80,CA,05/02/2018,78,50.56,-96.99,55.11,7.63
420,ballitoville,12,ZA,05/02/2018,85,-29.54,31.21,63.93,4.38
421,jijiang,12,CN,05/02/2018,96,29.8,120.61,51.42,2.71
422,gambela,8,ET,05/02/2018,84,8.25,34.59,62.04,0.36
423,corum,32,TR,05/02/2018,91,38.8,29.89,49.71,2.71
424,praya,24,ID,05/02/2018,100,-8.71,116.27,79.68,9.64
425,severo-yeniseyskiy,0,RU,05/02/2018,67,60.37,93.04,24.24,5.17
426,lebanon,12,US,05/02/2018,38,43.64,-72.25,76.53,8.19
427,green valley,48,US,05/02/2018,78,40.41,-89.64,77.43,9.64
428,olinda,68,EC,05/02/2018,80,-2.03,-79.75,85.71,4.16
429,uyuni,0,BO,05/02/2018,17,-20.46,-66.82,61.95,7.85
430,manado,80,ID,05/02/2018,100,1.49,124.85,72.93,1.48
431,atambua,56,ID,05/02/2018,100,-9.11,124.89,76.53,7.29
432,norrkoping,0,SE,05/02/2018,81,58.59,16.18,43.68,2.37
433,kralendijk,0,BQ,05/02/2018,96,12.15,-68.27,80.94,21.72
434,vestmannaeyjar,20,IS,05/02/2018,91,63.44,-20.27,38.82,9.42
435,havre-saint-pierre,68,CA,05/02/2018,93,50.23,-63.6,39.27,15.12
436,neuquen,0,AR,05/02/2018,39,-38.95,-68.06,64.2,8.41
437,alofi,56,NU,05/02/2018,100,-19.06,-169.92,78.24,6.96
438,lavrentiya,48,RU,05/02/2018,100,65.58,-170.99,21.72,8.3
439,masuda,100,JP,05/02/2018,94,34.68,131.85,52.77,18.59
440,dingzhou,0,CN,05/02/2018,53,38.51,115.0,48.81,8.97
441,riga,0,LV,05/02/2018,80,56.95,24.11,45.75,2.04
442,gewane,76,ET,05/02/2018,89,10.16,40.66,70.59,1.48
443,kamenz,12,DE,05/02/2018,90,51.27,14.09,57.81,4.83
444,santander de quilichao,48,CO,05/02/2018,91,3.01,-76.49,63.66,0.36
445,cayenne,88,GF,05/02/2018,90,4.94,-52.33,78.69,8.97
446,yuanping,0,CN,05/02/2018,58,38.72,112.71,34.14,2.37
447,xinglongshan,24,CN,05/02/2018,53,43.96,125.47,45.39,15.01
448,ngorongoro,8,TZ,05/02/2018,95,-3.24,35.49,52.23,2.59
449,ginir,8,ET,05/02/2018,91,7.14,40.71,59.34,2.59
450,tingo maria,36,PE,05/02/2018,81,-9.29,-76.01,71.13,2.15
451,manthani,0,IN,05/02/2018,49,18.65,79.67,84.99,10.98
452,saint-leu,0,RE,05/02/2018,100,-21.15,55.28,71.31,5.39
453,pangnirtung,56,CA,05/02/2018,89,66.15,-65.72,11.19,11.65
454,warri,12,NG,05/02/2018,84,5.52,5.75,80.22,8.97
455,san felipe,44,CL,05/02/2018,83,-32.75,-70.73,56.37,1.36
456,urazovo,0,RU,05/02/2018,50,50.09,38.04,57.09,2.82
457,vila,64,IT,05/02/2018,96,45.18,8.4,53.85,8.75
458,garowe,92,SO,05/02/2018,98,8.41,48.48,71.04,4.94
459,kumluca,36,TR,05/02/2018,79,36.37,30.29,45.84,0.69
460,kontagora,12,NG,05/02/2018,62,10.4,5.47,83.55,5.17
461,san lorenzo,20,HN,05/02/2018,62,13.43,-87.45,91.29,3.38
462,mocuba,80,MZ,05/02/2018,90,-16.84,36.99,72.48,2.82
463,narsaq,0,GL,05/02/2018,81,60.91,-46.05,11.82,14.45
464,valera,20,VE,05/02/2018,71,9.31,-70.61,87.51,3.71
465,pujehun,32,SL,05/02/2018,92,7.36,-11.72,81.21,5.61
466,belaya gora,92,RU,05/02/2018,96,68.54,146.19,37.29,11.99
467,maputo,0,MZ,05/02/2018,94,-25.97,32.57,62.85,2.93
468,mata,92,CU,05/02/2018,88,22.63,-79.93,78.69,15.35
469,taiyuan,0,CN,05/02/2018,62,37.86,112.56,38.82,2.82
470,pringsewu,0,ID,05/02/2018,87,-5.36,104.98,71.22,1.03
471,necochea,68,AR,05/02/2018,86,-38.55,-58.74,62.67,10.76
472,metro,0,ID,05/02/2018,99,-5.11,105.31,75.18,2.04
473,synya,0,RU,05/02/2018,79,65.37,58.04,14.25,2.59
474,peniche,0,PT,05/02/2018,100,39.36,-9.38,57.36,2.93
475,locri,100,IT,05/02/2018,99,38.24,16.26,58.98,6.73
476,barnstaple,12,GB,05/02/2018,95,51.08,-4.06,45.66,10.2
477,sarangani,48,PH,05/02/2018,100,5.4,125.46,83.28,10.09
478,coihaique,36,CL,05/02/2018,85,-45.58,-72.07,45.21,6.29
479,walker,92,US,05/02/2018,66,43.01,-85.77,73.29,17.81
480,sibu,24,MY,05/02/2018,100,2.29,111.83,74.37,2.93
481,boa vista,80,BR,05/02/2018,97,2.82,-60.67,76.62,5.39
482,ekhabi,0,RU,05/02/2018,70,53.51,142.97,20.37,2.82
483,znamenskoye,32,RU,05/02/2018,72,57.13,73.82,32.97,6.29
484,yokadouma,68,CM,05/02/2018,97,3.52,15.05,70.41,1.7
485,marsaxlokk,68,MT,05/02/2018,100,35.84,14.54,61.32,31.56
486,mao,32,DO,05/02/2018,79,19.55,-71.08,82.11,11.43
487,lethem,88,GY,05/02/2018,100,3.38,-59.8,75.45,3.71
488,amapa,48,HN,05/02/2018,72,15.09,-87.97,79.77,2.71
489,bressanone,68,IT,05/02/2018,89,46.72,11.66,35.13,1.14
490,qom,92,IR,05/02/2018,100,34.64,50.88,57.99,3.83
491,pendleton,0,US,05/02/2018,38,34.65,-82.78,79.68,6.17
492,coruripe,80,BR,05/02/2018,100,-10.12,-36.18,78.24,11.32
493,sinegorye,12,RU,05/02/2018,72,62.09,150.53,19.74,2.59
494,chumikan,0,RU,05/02/2018,57,54.72,135.31,37.92,6.96
495,thai binh,80,VN,05/02/2018,100,20.45,106.33,73.47,6.4
496,nautla,0,MX,05/02/2018,95,20.22,-96.78,80.85,20.04
497,oranjestad,12,AW,05/02/2018,95,12.52,-70.03,80.67,25.64
498,goundam,0,ML,05/02/2018,23,16.42,-3.66,82.29,7.74
499,adamovka,0,RU,05/02/2018,88,51.52,59.94,45.57,3.15
500,hamamatsu,92,JP,05/02/2018,99,34.71,137.73,66.27,8.75
501,coquimbo,0,CL,05/02/2018,92,-29.95,-71.34,60.24,7.4
502,wanning,24,AT,05/02/2018,63,48.64,13.53,60.24,6.17
503,greenville,0,US,05/02/2018,32,34.85,-82.4,82.65,9.31
504,turukhansk,76,RU,05/02/2018,93,65.8,87.96,8.67,13.67
505,katherine,20,AU,05/02/2018,67,-14.47,132.26,74.55,9.75
506,nuqui,64,CO,05/02/2018,100,5.71,-77.27,79.5,5.06
507,castelldefels,0,ES,05/02/2018,86,41.29,1.98,50.52,1.7
508,emerald,0,AU,05/02/2018,92,-23.53,148.16,63.03,3.49
509,samarai,44,PG,05/02/2018,100,-10.62,150.67,81.12,10.65
510,flinders,0,AU,05/02/2018,89,-34.58,150.85,51.6,3.27
511,vilhena,24,BR,05/02/2018,67,-12.74,-60.15,82.02,2.26
512,esperance,76,TT,05/02/2018,78,10.24,-61.45,81.12,7.74
513,port hardy,64,CA,05/02/2018,86,50.7,-127.42,52.23,2.26
514,karratha,36,AU,05/02/2018,51,-20.74,116.85,62.22,5.39
515,north platte,0,US,05/02/2018,56,41.12,-100.77,65.37,15.68
516,port blair,44,IN,05/02/2018,100,11.67,92.75,84.45,5.84
517,cairns,92,AU,05/02/2018,100,-16.92,145.77,74.55,11.43
518,hay river,92,CA,05/02/2018,98,60.82,-115.79,47.91,7.07
519,kilifi,92,KE,05/02/2018,92,-3.63,39.85,75.63,10.42
520,khash,24,IR,05/02/2018,43,28.22,61.21,58.26,4.61
521,lively,48,US,05/02/2018,62,32.41,-96.32,86.52,21.72
522,uruzgan,0,AF,05/02/2018,85,32.93,66.63,34.95,2.15
523,ritchie,48,ZA,05/02/2018,81,-29.03,24.6,55.02,3.04
524,nakusp,0,CA,05/02/2018,45,50.24,-117.8,54.48,1.92
525,kribi,80,CM,05/02/2018,92,2.94,9.91,78.24,3.6
526,ternate,0,PH,05/02/2018,94,14.29,120.72,80.22,7.74
527,santiago del estero,56,AR,05/02/2018,79,-27.8,-64.26,79.41,4.38
528,umm kaddadah,0,SD,05/02/2018,19,13.6,26.69,74.64,7.4
529,hualmay,0,PE,05/02/2018,78,-11.1,-77.61,72.39,5.73
530,jaciara,0,BR,05/02/2018,41,-15.95,-54.98,84.0,3.71
531,si bun ruang,48,TH,05/02/2018,98,16.97,102.28,70.05,2.15
532,guelph,56,CA,05/02/2018,55,43.55,-80.25,74.1,25.3
533,poum,0,MK,05/02/2018,86,41.28,20.71,50.07,1.92
534,saldanha,8,PT,05/02/2018,70,41.42,-6.55,51.51,7.07
535,belmonte,0,PT,05/02/2018,82,40.36,-7.35,47.91,4.61
536,kachiry,0,KZ,05/02/2018,86,53.07,76.1,31.26,6.17
537,batemans bay,0,AU,05/02/2018,100,-35.71,150.18,54.12,4.5
538,puerto carreno,88,CO,05/02/2018,98,6.19,-67.49,72.48,2.93
539,kijang,0,KR,05/02/2018,77,35.24,129.21,48.99,9.53
540,arawa,48,NG,05/02/2018,87,7.05,3.9,76.35,2.26
541,maceio,92,BR,05/02/2018,97,-9.67,-35.74,74.46,7.4
542,erenhot,0,CN,05/02/2018,69,43.65,111.97,29.46,3.15
543,beringovskiy,76,RU,05/02/2018,100,63.05,179.32,27.39,3.38
544,pathein,0,MM,05/02/2018,92,16.78,94.73,72.3,2.93
545,waddan,0,LY,05/02/2018,17,29.16,16.14,75.54,15.35
546,saint-ambroise,76,FR,05/02/2018,88,47.25,-0.65,52.05,10.98
547,norman,0,US,05/02/2018,55,35.22,-97.44,86.61,20.38
548,atar,36,MR,05/02/2018,20,20.52,-13.05,74.37,6.96
549,ocampo,68,PH,05/02/2018,100,13.56,123.37,78.33,3.71
550,koumac,0,NC,05/02/2018,86,-20.56,164.28,71.58,7.96
551,gangawati,76,IN,05/02/2018,39,15.43,76.53,85.35,4.38
552,huanren,92,CN,05/02/2018,100,41.26,125.37,37.38,9.31
553,diebougou,12,BF,05/02/2018,58,10.97,-3.25,85.89,7.4
554,soto la marina,88,MX,05/02/2018,45,23.77,-98.21,94.98,14.56
555,shiloh,76,US,05/02/2018,58,38.56,-89.9,84.72,13.67
556,jega,0,NG,05/02/2018,49,12.22,4.38,84.54,9.08
557,nome,0,US,05/02/2018,62,30.04,-94.42,85.08,16.24
558,guerrero negro,0,MX,05/02/2018,61,27.97,-114.04,65.73,10.65
